{
    "museums": [
        {
          "name": "laurent botella",
          "state" : "Delhi",
          "latitude": 43.671824,
          "longitude": 3.859265
        },
        {
          "name": "National Science Centre,",
          "state": "Delhi",
          "latitude": 28.6132098,
          "longitude": 77.245437
        },
        {
          "name": "The Sardar Patel Museum",
          "state": "Gujrat",
          "latitude": 21.1699005,
          "longitude": 72.7955734
        },
        {
          "name": "Library of Tibetan Works and Archives",
          "state": "Himachal",
          "latitude": 32.2263696,
          "longitude": 76.325326
  
        },
        {
          "name": "Chhatrapati Shivaji Maharaj Vastu Sangrahalaya",
          "state": "Maharashtra",
          "latitude": 18.926873,
          "longitude": 72.8326132
        },
        {
          "name": "Namgyal Institute of Tibetology",
          "state": "Sikkim",
          "latitude": 27.315948,
          "longitude": 88.6047829
  
        }
        ]
  }